[
  {
    "type": "FeatureCollection",
    "features": [
      {
        "type": "Feature",
        "geometry": {
          "type": "Point",
          "coordinates": [
            -122.69875209999998, 45.5341627
          ]
        },
        "properties": {
          "name": "The Benevento",
          "price": "",
          "notes": "",
          "phoneFormatted": "",
          "phone": "",
          "district": "Northwest",
          "address": "1606 NW 23rd Ave. #208",
          "city": "Portland",
          "country": "United States",
          "crossStreet": "at 15th St",
          "postalCode": "97210",
          "state": "OR",
          "url": "http://www.thebenevento.com/",
          "img": "http://www.thebenevento.com//wp-content/uploads/2013/09/0221.jpg"
        }
      },
      {
        "type": "Feature",
        "geometry": {
          "type": "Point",
          "coordinates": [
            -122.70078410000002, 45.53404
          ]
        },
        "properties": {
          "name": "Sawyer's Row ",
          "price": "",
          "notes": "AFFORDABLE",
          "phoneFormatted": "",
          "phone": "",
          "district": "Northwest",
          "address": "1970 NW Raleigh St #311",
          "city": "Portland",
          "country": "United States",
          "crossStreet": "at 15th St",
          "postalCode": "97209",
          "state": "OR",
          "url": "",
          "img": "",
          "status": ""
        }
      },
      {
        "type": "Feature",
        "geometry": {
          "type": "Point",
          "coordinates": [
            -122.69721119999997, 45.5226967
          ]
        },
        "properties": {
          "name": "Saint Clair Apartments",
          "price": "",
          "notes": "",
          "phoneFormatted": "",
          "phone": "",
          "district": "Northwest",
          "address": "735 SW Saint Clair Ave.",
          "city": "Portland",
          "country": "United States",
          "crossStreet": "at 15th St",
          "postalCode": "97205",
          "state": "OR",
          "url": "",
          "img": "",
          "status": ""
        }
      },
      {
        "type": "Feature",
        "geometry": {
          "type": "Point",
          "coordinates": [
            -122.69210659999999, 45.5325397
          ]
        },
        "properties": {
          "name": "20 Pettygrove Apartments",
          "price": "",
          "notes": "",
          "phoneFormatted": "",
          "phone": "(877) 503-6826",
          "district": "Northwest",
          "address": "1976 NW Pettygrove St.",
          "city": "Portland",
          "country": "United States",
          "crossStreet": "at 15th St",
          "postalCode": "",
          "state": "OR",
          "url": "http://www.20pettygroveapts.com/",
          "img": "http://www.20pettygroveapts.com/properties/2420/property_photos/37561/S_248_HEIGHT_extension_jpg_q_90__v2_Model_1.jpg",
          "status": ""
        }
      },
      {
        "type": "Feature",
        "geometry": {
          "type": "Point",
          "coordinates": [
            -122.6829043000000200, 45.5252531
          ]
        },

        "properties": {
          "name": "The Janey Apartments",
          "price": "",
          "notes": "BOOKED",
          "phoneFormatted": "",
          "phone": "",
          "district": "Pearl",
          "address": "1155 NW Everett St.",
          "city": "Portland",
          "country": "United States",
          "crossStreet": "at 15th St",
          "postalCode": "97209",
          "state": "OR",
          "url": "",
          "img": "",
          "status": "muted"
        }
      },
      {
        "type": "Feature",
        "geometry": {
          "type": "Point",
          "coordinates": [
            -122.67670780000003, 45.5273226
          ]
        },
        "properties": {
          "name": "Hoyt",
          "price": "",
          "notes": "LOFTY,  AFFORDABLE, BUMS",
          "phoneFormatted": "",
          "phone": "",
          "district": "Pearl",
          "address": "610 NW Hoyt St.",
          "city": "Portland",
          "country": "United States",
          "crossStreet": "at 15th St",
          "postalCode": "97209",
          "state": "OR",
          "url": "",
          "img": "",
          "status": ""
        }
      },
      {
        "type": "Feature",
        "geometry": {
          "type": "Point",
          "coordinates": [
            -122.6794946, 45.52692340000001
          ]
        },
        "properties": {
          "name": "Honeyman Hardware Lofts",
          "price": "",
          "notes": "",
          "phoneFormatted": "",
          "phone": "",
          "district": "Pearl",
          "address": "555 NW Park Ave.",
          "city": "Portland",
          "country": "United States",
          "crossStreet": "at 15th St",
          "postalCode": "97209",
          "state": "OR",
          "url": "",
          "img": "",
          "status": ""
        }
      },
      {
        "type": "Feature",
        "geometry": {
          "type": "Point",
          "coordinates": [
            -122.68417199999999, 45.531267
          ]
        },
        "properties": {
          "name": "The Wyatt Apartments",
          "price": "",
          "notes": "LOFTY, EXPENSIVE",
          "phoneFormatted": "",
          "phone": "",
          "district": "Pearl",
          "address": "1221 NW Marshall St.",
          "city": "Portland",
          "country": "United States",
          "crossStreet": "at 15th St",
          "postalCode": "97209",
          "state": "OR",
          "url": "http://www.thewyatt.com/",
          "img": "http://medialibrarycdn.propertysolutions.com/media_library/3049/543c68ffe06c8245.jpg",
          "status": ""
        }
      },
      {
        "type": "Feature",
        "geometry": {
          "type": "Point",
          "coordinates": [
            -122.68094480000002, 45.5274434
          ]
        },
        "properties": {
          "name": "10th At Hoyt Apartments",
          "price": "",
          "notes": "Carpet, bland, but great area",
          "phoneFormatted": "",
          "phone": "",
          "district": "Pearl",
          "address": "925 NW Hoyt St.",
          "city": "Portland",
          "country": "United States",
          "crossStreet": "at 15th St",
          "postalCode": "97209",
          "state": "OR",
          "url": "",
          "img": "",
          "status": ""
        }
      },
      {
        "type": "Feature",
        "geometry": {
          "type": "Point",
          "coordinates": [
            -122.68298119999997, 45.5261248
          ]
        },
        "properties": {
          "name": "McKenzie",
          "price": "",
          "notes": "",
          "phoneFormatted": "",
          "phone": "",
          "district": "Pearl",
          "address": "408 NW 12th Ave 208",
          "city": "Portland",
          "country": "United States",
          "crossStreet": "at 15th St",
          "postalCode": "",
          "state": "OR",
          "url": "",
          "img": "",
          "status": ""
        }
      },
      {
        "type": "Feature",
        "geometry": {
          "type": "Point",
          "coordinates": [
            -122.6835369, 45.5332026
          ]
        },
        "properties": {
          "name": "The Parker",
          "price": "$1900.00",
          "notes": "Potential",
          "phoneFormatted": "",
          "phone": "503-973-5555",
          "district": "Pearl",
          "address": "1447 NW 12th Avenue",
          "city": "Portland",
          "country": "United States",
          "crossStreet": "at 15th St",
          "postalCode": "97209",
          "state": "OR",
          "url": "http://www.theparkerapartments.com/",
          "img": "http://medialibrarycdn.propertysolutions.com/media_library/1106/54c674e9a35ea643.jpg",
          "status": ""
        }
      },
      {
        "type": "Feature",
        "geometry": {
          "type": "Point",
          "coordinates": [
            -122.68361800000002, 45.53058610000001
          ]
        },
        "properties": {
          "name": "Asa",
          "price": "",
          "notes": "BOOKED",
          "phoneFormatted": "",
          "phone": "",
          "district": "Pearl",
          "address": "1200 NW Marshall St",
          "city": "Portland",
          "country": "United States",
          "crossStreet": "at 15th St",
          "postalCode": "97209",
          "state": "OR",
          "url": "",
          "img": "",
          "status": "muted"
        }
      },
      {
        "type": "Feature",
        "geometry": {
          "type": "Point",
          "coordinates": [
            -122.6719569, 45.5273017
          ]
        },
        "properties": {
          "name": "710 NW Naito",
          "price": "",
          "notes": "SPACIOUS, OLDER, ISOLATED, WATERFRONT",
          "phoneFormatted": "",
          "phone": "",
          "district": "OldTown",
          "address": "710 NW Naito Pkwy #C16",
          "city": "Portland",
          "country": "United States",
          "crossStreet": "at 15th St",
          "postalCode": "97209",
          "state": "OR",
          "url": "",
          "img": "",
          "status": ""
        }
      },
      {
        "type": "Feature",
        "geometry": {
          "type": "Point",
          "coordinates": [
            -122.68186224524482, 45.50993255140572
          ]
        },
        "properties": {
          "name": "The Louisa",
          "price": "",
          "notes": "DAMN, AFFORDABLE",
          "phoneFormatted": "",
          "phone": "",
          "district": "Downtown",
          "address": "NW Th Ave. #12312",
          "city": "Portland",
          "country": "United States",
          "crossStreet": "at 15th St",
          "postalCode": "97209",
          "state": "OR",
          "url": "",
          "img": "",
          "status": ""
        }
      },
      {
        "type": "Feature",
        "geometry": {
          "type": "Point",
          "coordinates": [
            -122.6857498, 45.51470459999999 
          ]
        },
        "properties": {
          "name": "1500 SW 11th Ave",
          "price": "",
          "notes": "DAMN, 2K, SPACIOUS",
          "phoneFormatted": "",
          "phone": "",
          "district": "Downtown",
          "address": "1500 SW 11th Ave. #404.",
          "city": "Portland",
          "country": "United States",
          "crossStreet": "at 15th St",
          "postalCode": "97201",
          "state": "OR",
          "url": "",
          "img": "",
          "status": ""
        }
      },
      {
        "type": "Feature",
        "geometry": {
          "type": "Point",
          "coordinates": [
            -122.6794873, 45.5097989
          ]
        },
        "properties": {
          "name": "Harrison Tower Apartment Homes Apartments",
          "price": "",
          "notes": "",
          "phoneFormatted": "",
          "phone": "",
          "district": "Downtown",
          "address": "222 SW Harrison St.",
          "city": "Portland",
          "country": "United States",
          "crossStreet": "at 15th St",
          "postalCode": "97201",
          "state": "OR",
          "url": "",
          "img": "",
          "status": ""
        }
      },
      {
        "type": "Feature",
        "geometry": {
          "type": "Point",
          "coordinates": [
             -122.6580525, 45.5312075
          ]
        },
        "properties": {
          "name": "Hassalo on Eighth",
          "price": "",
          "notes": "NEW",
          "phoneFormatted": "",
          "phone": "",
          "district": "Downtown",
          "address": "700 NE Multnomah St.",
          "city": "Portland",
          "country": "United States",
          "crossStreet": "at 15th St",
          "state": "OR",
          "url": "",
          "img": "",
          "status": ""
        }
      },
      {
        "type": "Feature",
        "geometry": {
          "type": "Point",
          "coordinates": [
            -122.6741978, 45.5077861
          ]
        },
        "properties": {
          "name": "Mint Urban RiverPlace",
          "price": "",
          "notes": "Scared of horrible reviews from tenents",
          "phoneFormatted": "",
          "phone": "",
          "district": "Downtown",
          "address": "2083 SW River Dr.",
          "city": "Portland",
          "country": "United States",
          "crossStreet": "at 15th St",
          "state": "OR",
          "url": "",
          "img": "",
          "status": "muted"
        }
      },
      {
        "type": "Feature",
        "geometry": {
          "type": "Point",
          "coordinates": [
            -122.64576310000001, 45.5235833
          ]
        },
        "properties": {
          "name": "Matador",
          "price": "",
          "notes": "AFFORDABLE",
          "phoneFormatted": "",
          "phone": "",
          "district": "Buckman",
          "address": "1950 NE Couch St.",
          "city": "Portland",
          "country": "United States",
          "crossStreet": "at 15th St",
          "postalCode": "97232",
          "state": "OR",
          "url": "",
          "img": "",
          "status": ""
        }
      },
      {
        "type": "Feature",
        "geometry": {
          "type": "Point",
          "coordinates": [
            -122.65535979999999, 45.5224012
          ]
        },
        "properties": {
          "name": "Lower Burnside Lofts Apartments",
          "price": "",
          "notes": "",
          "phoneFormatted": "",
          "phone": "",
          "district": "Buckman",
          "address": "30 SE 10th Ave.",
          "city": "Portland",
          "country": "United States",
          "crossStreet": "at 15th St", 
          "postalCode": "97214",
          "state": "OR",
          "url": "",
          "img": "",
          "status": ""
        }
      }
    ]
  }

]